name,affiliation,latitude,longitude,email,location
CORESMA,HZI,52.3886566,9.799249,serohub@helmholtz-hzi.de,Hannover
MuSPAD,HZI,52.3759,9.732,serohub@helmholtz-hzi.de,Hannover
MuSPAD,HZI,48.49144,9.20427,serohub@helmholtz-hzi.de,Reutlingen
CORESMA,HZI,27.700769,85.300140,serohub@helmholtz-hzi.de,Nepal
Columbia,HZI,4.624335,-74.063644,serohub@helmholtz-hzi.de,Bogotá
CoNAN,Universitätsklinikum Jena,50.5970644,10.8989878,Mathias.Pletz@med.uni-jena.de,Neustadt am Rennsteig